{"type":"FeatureCollection","features":[

    {"type":"Feature","id":"1","geometry":{"type":"Point","coordinates":[-72.5020494,44.1970055 ]},"properties":{"name":"Barre","vcf":244100,"vdrf":0,"unit":"town", "number": 9 }},
    {"type":"Feature","id":"2","geometry":{"type":"Point","coordinates":[-72.4439772,43.133411 ]},"properties":{"name":"Bellows Falls","vcf":5000,"vdrf":0,"unit":"town", "number": 1 }},
    {"type":"Feature","id":"3","geometry":{"type":"Point","coordinates":[-73.1968001,42.878094 ]},"properties":{"name":"Bennington","vcf":4000,"vdrf":0,"unit":"town", "number": 1 }},
    {"type":"Feature","id":"4","geometry":{"type":"Point","coordinates":[-72.5861615,44.2152614 ]},"properties":{"name":"Berlin","vcf":5000,"vdrf":0,"unit":"town", "number": 1 }},
    {"type":"Feature","id":"5","geometry":{"type":"Point","coordinates":[-72.5578619,42.8509348 ]},"properties":{"name":"Brattleboro","vcf":35000,"vdrf":0,"unit":"town", "number": 7 }},
    {"type":"Feature","id":"6","geometry":{"type":"Point","coordinates":[-72.6250967,43.588125 ]},"properties":{"name":"Bridgewater","vcf":5000,"vdrf":0,"unit":"town", "number": 1 }},
    {"type":"Feature","id":"7","geometry":{"type":"Point","coordinates":[-73.212072,44.4758825 ]},"properties":{"name":"Burlington","vcf":312385,"vdrf":0,"unit":"town", "number": 17 }},
    {"type":"Feature","id":"8","geometry":{"type":"Point","coordinates":[-72.5951082,43.2628476 ]},"properties":{"name":"Chester","vcf":5000,"vdrf":0,"unit":"town", "number": 1 }},
    {"type":"Feature","id":"9","geometry":{"type":"Point","coordinates":[-72.4702778,42.8872222 ]},"properties":{"name":"Chesterfield (NH)","vcf":9000,"vdrf":0,"unit":"town", "number": 1 }},
    {"type":"Feature","id":"10","geometry":{"type":"Point","coordinates":[-73.1479068,44.5439375 ]},"properties":{"name":"Colchester","vcf":77796,"vdrf":0,"unit":"town", "number": 4 }},
    {"type":"Feature","id":"11","geometry":{"type":"Point","coordinates":[-73.1112207,44.4905433 ]},"properties":{"name":"Essex Junction","vcf":5000,"vdrf":0,"unit":"town", "number": 1 }},
    {"type":"Feature","id":"12","geometry":{"type":"Point","coordinates":[-72.8467412,43.9855014 ]},"properties":{"name":"Granville","vcf":22500,"vdrf":0,"unit":"town", "number": 2 }},
    {"type":"Feature","id":"13","geometry":{"type":"Point","coordinates":[-72.2895526,43.7022451 ]},"properties":{"name":"Hanover (NH)","vcf":7500,"vdrf":0,"unit":"town", "number": 2 }},
    {"type":"Feature","id":"14","geometry":{"type":"Point","coordinates":[-72.3497222,44.5180556 ]},"properties":{"name":"Hardwick","vcf":50000,"vdrf":0,"unit":"town", "number": 1 }},
    {"type":"Feature","id":"15","geometry":{"type":"Point","coordinates":[-72.7798247,43.6775677 ]},"properties":{"name":"Killington","vcf":10000,"vdrf":0,"unit":"town", "number": 2 }},
    {"type":"Feature","id":"16","geometry":{"type":"Point","coordinates":[-72.2517569,43.6422934 ]},"properties":{"name":"Lebanon (NH)","vcf":10000,"vdrf":0,"unit":"town", "number": 2 }},
    {"type":"Feature","id":"17","geometry":{"type":"Point","coordinates":[-72.8064866,43.2264643 ]},"properties":{"name":"Londonderry","vcf":5000,"vdrf":0,"unit":"town", "number": 1 }},
    {"type":"Feature","id":"18","geometry":{"type":"Point","coordinates":[-72.7006091,43.3958728 ]},"properties":{"name":"Ludlow","vcf":15000,"vdrf":0,"unit":"town", "number": 3 }},
    {"type":"Feature","id":"19","geometry":{"type":"Point","coordinates":[-72.7259271,42.859526 ]},"properties":{"name":"Marlboro","vcf":5000,"vdrf":0,"unit":"town", "number": 1 }},
    {"type":"Feature","id":"20","geometry":{"type":"Point","coordinates":[-73.1181624,43.4856255 ]},"properties":{"name":"Middletown Springs","vdrf":0,"vcf":10000,"unit":"town", "number": 2 }},
    {"type":"Feature","id":"21","geometry":{"type":"Point","coordinates":[-72.5753869,44.2600593 ]},"properties":{"name":"Montpelier","vcf":325000,"vdrf":0,"unit":"town", "number": 8 }},
    {"type":"Feature","id":"22","geometry":{"type":"Point","coordinates":[-72.6559313,42.9856736 ]},"properties":{"name":"Newfane","vcf":5000,"vdrf":0,"unit":"town", "number": 1 }},
    {"type":"Feature","id":"23","geometry":{"type":"Point","coordinates":[-72.656747,44.151202 ]},"properties":{"name":"Northfield","vcf":8000,"vdrf":0,"unit":"town", "number": 2 }},
    {"type":"Feature","id":"24","geometry":{"type":"Point","coordinates":[-72.8128828,43.7722884 ]},"properties":{"name":"Pittsfield","vcf":10000,"vdrf":0,"unit":"town", "number": 2 }},
    {"type":"Feature","id":"25","geometry":{"type":"Point","coordinates":[-72.7219581,43.5354332 ]},"properties":{"name":"Plymouth","vcf":15000,"vdrf":0,"unit":"town", "number": 3 }},
    {"type":"Feature","id":"26","geometry":{"type":"Point","coordinates":[-72.6384277,43.3822947 ]},"properties":{"name":"Proctorsville","vcf":5000,"vdrf":0,"unit":"town", "number": 1 }},
    {"type":"Feature","id":"27","geometry":{"type":"Point","coordinates":[-72.6656948,43.9247446 ]},"properties":{"name":"Randolph","vcf":10000,"vdrf":0,"unit":"town", "number": 2 }},
    {"type":"Feature","id":"28","geometry":{"type":"Point","coordinates":[-72.5963889,43.4941667 ]},"properties":{"name":"Reading","vcf":5000,"vdrf":0,"unit":"town", "number": 1 }},
    {"type":"Feature","id":"29","geometry":{"type":"Point","coordinates":[-72.9924128,44.4053135 ]},"properties":{"name":"Richmond","vcf":75692,"vdrf":0,"unit":"town", "number": 4 }},
    {"type":"Feature","id":"30","geometry":{"type":"Point","coordinates":[-72.808018,43.8745646 ]},"properties":{"name":"Rochester","vcf":13420,"vdrf":0,"unit":"town", "number": 3 }},
    {"type":"Feature","id":"31","geometry":{"type":"Point","coordinates":[-72.9726065,43.6106237 ]},"properties":{"name":"Rutland","vcf":20000,"vdrf":0,"unit":"town", "number": 3 }},
    {"type":"Feature","id":"32","geometry":{"type":"Point","coordinates":[-72.8667686,43.5089588 ]},"properties":{"name":"Shrewsbury","vcf":10000,"vdrf":0,"unit":"town", "number": 2 }},
    {"type":"Feature","id":"33","geometry":{"type":"Point","coordinates":[-73.1709604,44.4669941 ]},"properties":{"name":"South Burlington","vcf":5000,"vdrf":0,"unit":"town", "number": 1 }},
    {"type":"Feature","id":"34","geometry":{"type":"Point","coordinates":[-72.5213419,43.8205295 ]},"properties":{"name":"South Royalton","vcf":40000,"vdrf":0,"unit":"town", "number": 4 }},
    {"type":"Feature","id":"35","geometry":{"type":"Point","coordinates":[-72.4823306,43.2983665 ]},"properties":{"name":"Springfield","vcf":4100,"vdrf":0,"unit":"town", "number": 1 }},
    {"type":"Feature","id":"36","geometry":{"type":"Point","coordinates":[-72.0151183,44.4192627 ]},"properties":{"name":"St. Johnsbury","vcf":5000,"vdrf":0,"unit":"town", "number": 1 }},
    {"type":"Feature","id":"37","geometry":{"type":"Point","coordinates":[-72.7538555,43.7839353 ]},"properties":{"name":"Stockbridge","vcf":7500,"vdrf":0,"unit":"town", "number": 2 }},
    {"type":"Feature","id":"38","geometry":{"type":"Point","coordinates":[-72.9064889,43.1167439 ]},"properties":{"name":"Stratton Mountain","vcf":5000,"vdrf":0,"unit":"town", "number": 1 }},
    {"type":"Feature","id":"39","geometry":{"type":"Point","coordinates":[-72.4880556,43.9 ]},"properties":{"name":"Tunbridge","vcf":3500,"vdrf":0,"unit":"town", "number": 1 }},
    {"type":"Feature","id":"40","geometry":{"type":"Point","coordinates":[-72.8248379,44.1900592 ]},"properties":{"name":"Waitsfield","vcf":93000,"vdrf":0,"unit":"town", "number": 7 }},
    {"type":"Feature","id":"41","geometry":{"type":"Point","coordinates":[-72.7562636,44.3378203 ]},"properties":{"name":"Waterbury","vcf":32500,"vdrf":0,"unit":"town", "number": 7 }},
    {"type":"Feature","id":"42","geometry":{"type":"Point","coordinates":[-72.7189485,44.376896 ]},"properties":{"name":"Waterbury Center","vcf":10000,"vdrf":0,"unit":"town", "number": 2 }},
    {"type":"Feature","id":"43","geometry":{"type":"Point","coordinates":[-72.6031466,42.8559151 ]},"properties":{"name":"West Brattleboro","vcf":5000,"vdrf":0,"unit":"town", "number": 1 }},
    {"type":"Feature","id":"44","geometry":{"type":"Point","coordinates":[-72.8528755,42.9392469 ]},"properties":{"name":"West Dover","vcf":5000,"vdrf":0,"unit":"town", "number": 1 }},
    {"type":"Feature","id":"45","geometry":{"type":"Point","coordinates":[-72.4587404,43.0678307 ]},"properties":{"name":"Westminster","vcf":5000,"vdrf":0,"unit":"town", "number": 1 }},
    {"type":"Feature","id":"46","geometry":{"type":"Point","coordinates":[-72.7833333,43.3 ]},"properties":{"name":"Weston","vcf":10000,"vdrf":0,"unit":"town", "number": 2 }},
    {"type":"Feature","id":"47","geometry":{"type":"Point","coordinates":[-72.3192579,43.6489596 ]},"properties":{"name":"White River Junction","vcf":28000,"vdrf":0,"unit":"town", "number": 6 }},
    {"type":"Feature","id":"48","geometry":{"type":"Point","coordinates":[-73.099194,44.4454432 ]},"properties":{"name":"Williston","vcf":45000,"vdrf":0,"unit":"town", "number": 2 }},
    {"type":"Feature","id":"49","geometry":{"type":"Point","coordinates":[-72.8714468,42.8683889 ]},"properties":{"name":"Wilmington","vcf":24000,"vdrf":0,"unit":"town", "number": 5 }},
    {"type":"Feature","id":"50","geometry":{"type":"Point","coordinates":[-72.3865679,43.4799996 ]},"properties":{"name":"Windsor","vcf":5000,"vdrf":0,"unit":"town", "number": 1 }},
    {"type":"Feature","id":"51","geometry":{"type":"Point","coordinates":[-72.5185112,43.6242442 ]},"properties":{"name":"Woodstock","vcf":21000,"vdrf":0,"unit":"town", "number": 5 }},
    {"type":"Feature","id":"52","geometry":{"type":"Point","coordinates":[-73.164338,44.1197293 ]},"properties":{"name":"Addison County","vcf":432925,"vdrf":33817,"unit":"farm", "number": 37 }},
    {"type":"Feature","id":"53","geometry":{"type":"Point","coordinates":[-73.1349605,43.0278745 ]},"properties":{"name":"Bennington County","vcf":58100,"vdrf":47826,"unit":"farm", "number": 10 }},
    {"type":"Feature","id":"54","geometry":{"type":"Point","coordinates":[-72.0481907,44.55051 ]},"properties":{"name":"Caledonia County","vcf":25800,"vdrf":48022,"unit":"farm", "number": 7 }},
    {"type":"Feature","id":"55","geometry":{"type":"Point","coordinates":[-72.9962431,44.3959289 ]},"properties":{"name":"Chittenden County","vcf":324150,"vdrf":61113,"unit":"farm", "number": 29 }},
    {"type":"Feature","id":"56","geometry":{"type":"Point","coordinates":[-71.7436155,44.7682631 ]},"properties":{"name":"Essex County","vcf":7900,"vdrf":4275,"unit":"farm", "number": 2 }},
    {"type":"Feature","id":"57","geometry":{"type":"Point","coordinates":[-72.9340443,44.8429222 ]},"properties":{"name":"Franklin County","vcf":66000,"vdrf":20560,"unit":"farm", "number": 6 }},
    {"type":"Feature","id":"58","geometry":{"type":"Point","coordinates":[-73.2957299,44.8595928 ]},"properties":{"name":"Grand Isle County","vcf":18200,"vdrf":0,"unit":"farm", "number": 3 }},
    {"type":"Feature","id":"59","geometry":{"type":"Point","coordinates":[-72.6314026,44.6433418 ]},"properties":{"name":"Lamoille County","vcf":92150,"vdrf":27790,"unit":"farm", "number": 11 }},
    {"type":"Feature","id":"60","geometry":{"type":"Point","coordinates":[-72.4003713,44.0014186 ]},"properties":{"name":"Orange County","vcf":119900,"vdrf": 120189,"unit":"farm", "number": 11 }},
    {"type":"Feature","id":"61","geometry":{"type":"Point","coordinates":[-72.2603468,44.8905506 ]},"properties":{"name":"Orleans County","vcf":49700,"vdrf":25075,"unit":"farm", "number": 9 }},
    {"type":"Feature","id":"62","geometry":{"type":"Point","coordinates":[-72.9932969,43.6448675 ]},"properties":{"name":"Rutland County","vcf":327775,"vdrf":252309,"unit":"farm", "number": 29 }},
    {"type":"Feature","id":"63","geometry":{"type":"Point","coordinates":[-72.6972529,44.1986663 ]},"properties":{"name":"Washington County","vcf":271123,"vdrf":1207202,"unit":"farm", "number": 20 }},
    {"type":"Feature","id":"64","geometry":{"type":"Point","coordinates":[-72.8042797,43.0151325 ]},"properties":{"name":"Windham County","vcf":209350,"vdrf":419385,"unit":"farm", "number": 16 }},
    {"type":"Feature","id":"65","geometry":{"type":"Point","coordinates":[-72.6151169,43.4369244 ]},"properties":{"name":"Windsor County","vcf":419315,"vdrf":1066595,"unit":"farm", "number": 39 }}
]}
